start_station_name,rides_all,rides_january,rides_jan14_16,first_ride,last_ride,first_lat,first_lng,pct_january,pct_jan1416
900 W Harrison St,12646,449,4,2023-02-01,2024-01-31,41.842626214,-87.704150558,42.606357741578364,0.37956666139490747
Aberdeen St & Jackson Blvd,14926,544,14,2023-02-01,2024-01-31,41.869211066666665,-87.71304606666666,43.735763097949885,1.125552726785475
Aberdeen St & Monroe St,10096,384,8,2023-02-01,2024-01-31,41.880094166666666,-87.668944,45.64183835182251,0.9508716323296355
Aberdeen St & Randolph St,11000,304,6,2023-02-01,2024-01-31,41.882124833333336,-87.67228113333333,33.163636363636364,0.6545454545454545
Ada St & Washington Blvd,6698,252,5,2023-02-01,2024-01-31,41.882617833333335,-87.70212518333334,45.14780531501941,0.8957897879964168
Adler Planetarium,16893,108,5,2023-02-01,2024-01-31,41.83867632897121,-87.64862671494483,7.67181672882259,0.3551767004084532
Albany Ave & Bloomingdale Ave,5344,189,5,2023-02-01,2024-01-31,41.87799763333334,-87.70529233333333,42.44011976047904,1.122754491017964
Albany Ave & Montrose Ave,2046,40,1,2023-02-04,2024-01-31,41.94975911666667,-87.74686418333333,23.46041055718475,0.5865102639296188
Artesian Ave & Hubbard St,5244,247,6,2023-02-01,2024-01-31,41.82328903333333,-87.69066023333333,56.52173913043478,1.3729977116704806
Ashland Ave & 13th St,3474,105,2,2023-02-01,2024-01-31,41.705845233333335,-87.71734213333333,36.26943005181347,0.690846286701209
Ashland Ave & Archer Ave,1827,38,0,2023-02-01,2024-01-30,41.838741422,-87.666129708,24.958949096880133,0.0
Ashland Ave & Augusta Blvd,7276,238,3,2023-02-01,2024-01-31,41.8831125,-87.66937483333334,39.25233644859813,0.4947773501924134
Ashland Ave & Belle Plaine Ave,3189,66,1,2023-02-01,2024-01-31,41.955620766,-87.669084907,24.835371589840076,0.37629350893697083
Ashland Ave & Blackhawk St,8438,174,2,2023-02-01,2024-01-31,41.883601657275165,-87.67021583333333,24.74520028442759,0.2844275894761792
Ashland Ave & Chicago Ave,6444,184,3,2023-02-01,2024-01-31,41.8723992,-87.684258223,34.26443202979516,0.5586592178770949
Ashland Ave & Division St,21837,535,6,2023-02-01,2024-01-31,41.86700236666667,-87.70517783333334,29.39964280807803,0.32971562027751067
Ashland Ave & Grace St,7883,217,6,2023-02-01,2024-01-31,41.912005533333335,-87.71029495,33.03310922237727,0.9133578586832424
Ashland Ave & Grand Ave,5566,147,2,2023-02-01,2024-01-31,41.86700236666667,-87.667085886,31.692418253683076,0.4311893639956881
Ashland Ave & Lake St,6374,167,1,2023-02-01,2024-01-31,41.883601657275165,-87.68064771666667,31.440225917791025,0.1882648258550361
Ashland Ave & Wellington Ave,7406,188,0,2023-02-01,2024-01-31,41.8879894,-87.67018783333333,30.461787739670537,0.0
Ashland Ave & Wrightwood Ave,5466,187,3,2023-02-01,2024-01-31,41.890812278,-87.677449942,41.05378704720088,0.6586169045005489
Avers Ave & Belmont Ave,2423,51,1,2023-02-01,2024-01-31,41.939285278,-87.72370851,25.257944696657038,0.49525381758151055
Avondale Ave & Irving Park Rd,2605,58,0,2023-02-01,2024-01-31,41.952617645,-87.74017285,26.71785028790787,0.0
Benson Ave & Church St,5958,208,5,2023-02-01,2024-01-31,42.032597303,-87.683772445,41.8932527693857,1.0070493454179255
Bernard St & Elston Ave,1827,70,2,2023-02-01,2024-01-31,41.949303746,-87.714966655,45.97701149425287,1.3136288998357963
Bissell St & Armitage Ave*,9389,322,9,2023-02-01,2024-01-31,41.9116985,-87.65908001666666,41.15454254979231,1.1502822451805303
Blackstone Ave & 59th St,4463,634,17,2023-09-14,2024-01-31,41.787442565,-87.6280285,170.46829486892224,4.5709164239300915
Blackstone Ave & Hyde Park Blvd,4871,193,10,2023-02-01,2024-01-31,41.80186483333333,-87.68012498333333,47.54670498870868,2.463559843974543
Blue Island Ave & 18th St,5537,111,1,2023-02-02,2024-01-31,41.856827736,-87.68962943333334,24.056348202998013,0.2167238576846668
Broadway & Argyle St,8819,208,1,2023-02-01,2024-01-31,41.877773046,-87.73053848333333,28.3025286313641,0.13606984918925047
Broadway & Barry Ave,28223,656,12,2023-02-01,2024-01-31,41.8679495,-87.68010996666666,27.892144704673495,0.5102221592318322
Broadway & Belmont Ave,16462,399,10,2023-02-01,2024-01-31,41.883601657275165,-87.66778016666666,29.085165836471873,0.7289515247236059
Broadway & Berwyn Ave,7694,190,1,2023-02-01,2024-01-31,41.9433502470174,-87.67066776752472,29.63348063426046,0.15596568754873927
Broadway & Cornelia Ave,21002,457,4,2023-02-01,2024-01-31,41.760866283333336,-87.836727262,26.111798876297495,0.2285496619369584
Broadway & Granville Ave,7053,149,3,2023-02-01,2024-01-31,41.993975878,-87.661162853,25.350914504466186,0.5104210974053595
Broadway & Ridge Ave,6471,121,4,2023-02-01,2024-01-31,41.89479433333333,-87.73060976666666,22.438572090866945,0.7417709782104775
Broadway & Sheridan Rd,15907,419,9,2023-02-01,2024-01-31,41.877773046,-87.73060976666666,31.608725718237253,0.6789463758093921
Broadway & Thorndale Ave,7329,142,4,2023-02-01,2024-01-31,41.979096,-87.66846501666667,23.25010233319689,0.6549324600900532
Broadway & Waveland Ave,21967,608,11,2023-02-01,2024-01-31,41.802354097,-87.73060976666666,33.21345654845905,0.6009013520280421
Broadway & Wilson Ave,11779,327,7,2023-02-01,2024-01-31,41.889583816666665,-87.74485883333334,33.31352406825707,0.7131335427455642
Buckingham Fountain,4294,68,0,2023-02-03,2024-01-31,41.868288,-87.6403712,19.003260363297624,0.0
Buckingham Fountain (Temp),4547,0,0,2023-06-06,2023-09-20,41.864011833333336,-87.62938516666667,0.0,0.0
Burling St & Diversey Pkwy,13766,274,7,2023-02-01,2024-01-31,41.82328903333333,-87.67228113333333,23.884933895103877,0.6101990411157925
Burnham Harbor,9602,59,0,2023-02-04,2024-01-31,41.8573535,-87.680122,7.37346386169548,0.0
California Ave & Altgeld St,4028,104,0,2023-02-01,2024-01-31,41.8538097,-87.71515141666667,30.983118172790466,0.0
California Ave & Byron St,2547,78,0,2023-02-02,2024-01-31,41.9520385,-87.698472261,36.74911660777385,0.0
California Ave & Cortez St,5938,106,1,2023-02-01,2024-01-31,41.878830183333335,-87.697281122,21.421353991242842,0.20208824520040417
California Ave & Division St,4107,85,0,2023-02-01,2024-01-31,41.902752995,-87.70609883333333,24.83564645726808,0.0
California Ave & Fletcher St,2937,43,1,2023-02-01,2024-01-31,41.89030098333333,-87.698260546,17.56894790602656,0.40858018386108275
California Ave & Francis Pl,4747,109,2,2023-04-19,2024-01-31,41.89030098333333,-87.69797366666667,27.554244786180746,0.5055824731409311
California Ave & Lake St,1118,25,0,2023-02-06,2024-01-31,41.88326513333333,-87.696460128,26.833631484794275,0.0
California Ave & Milwaukee Ave,11908,354,8,2023-02-01,2024-01-31,41.89003216666666,-87.698373675,35.67349680886799,0.8061807188444743
California Ave & Montrose Ave,3376,53,0,2023-02-01,2024-01-31,41.88549170626906,-87.695581794,18.838862559241708,0.0
California Ave & North Ave,4313,100,1,2023-02-01,2024-01-31,41.8830718,-87.698490262,27.82286111755159,0.2782286111755159
Calumet Ave & 18th St,8212,125,3,2023-02-01,2024-01-31,41.856329679,-87.64862671494483,18.265952264978083,0.43838285435947394
Calumet Ave & 21st St,4250,54,0,2023-02-01,2024-01-31,41.83479225,-87.64862671494483,15.24705882352941,0.0
Calumet Ave & 33rd St,12716,482,10,2023-02-01,2024-01-31,41.7998048,-87.735646129,45.48600188738597,0.9436929852154765
Calumet Ave & 35th St,4019,146,5,2023-02-01,2024-01-31,41.764829866666666,-87.735646129,43.59293356556357,1.4929086837521772
Calumet Ave & 51st St,1013,13,0,2023-02-04,2024-01-30,41.801697612,-87.618364811,15.399802566633761,0.0
Campbell Ave & Augusta Blvd,2126,88,1,2023-04-27,2024-01-31,41.899345875,-87.69,49.67074317968015,0.5644402634054563
Campbell Ave & Fullerton Ave,3201,48,0,2023-02-01,2024-01-31,41.88205033333333,-87.80576116666667,17.994376757263357,0.0
Campbell Ave & Montrose Ave,3153,131,9,2023-02-01,2024-01-31,41.961040139,-87.692321,49.857278782112274,3.4253092293054235
Campbell Ave & North Ave,6219,184,3,2023-02-01,2024-01-31,41.883601657275165,-87.689738274,35.50410033767487,0.5788712011577424
Canal St & Adams St,22843,958,21,2023-02-01,2024-01-31,41.867241502,-87.68051826666667,50.32613929869107,1.1031825942301798
Canal St & Harrison St,3149,92,1,2023-02-01,2024-01-31,41.873815298,-87.63986233333333,35.05874880914576,0.38107335662114955
Canal St & Jackson Blvd,14120,512,4,2023-02-01,2024-01-31,41.868329,-87.679359078,43.51274787535411,0.33994334277620397
Canal St & Madison St,19269,747,14,2023-02-01,2024-01-31,41.87175558333333,-87.698501229,46.52031760859411,0.8718667289428615
Canal St & Monroe St,15474,552,6,2023-02-01,2024-01-31,41.8461902,-87.701378942,42.80728964715006,0.46529662659945714
Canal St & Taylor St,6487,249,6,2023-02-01,2024-01-31,41.869545579,-87.639618278,46.061353476183136,1.1099121319562202
Cannon Dr & Fullerton Ave,6103,48,0,2023-02-01,2024-01-31,41.87249816666667,-87.65218332409859,9.437981320661969,0.0
Carpenter St & Huron St,11381,271,4,2023-02-01,2024-01-31,41.883601657275165,-87.74485883333334,28.573939021175644,0.4217555575081276
Central Park Ave & Bloomingdale Ave,2590,56,1,2023-02-01,2024-01-31,41.914067984,-87.71692884,25.945945945945947,0.46332046332046334
Central Park Ave & Elbridge Ave,2906,52,0,2023-02-02,2024-01-31,41.935056567,-87.717354894,21.472814865794906,0.0
Central Park Ave & North Ave,1226,16,1,2023-02-04,2024-01-30,41.909307166666665,-87.72649383333334,15.66068515497553,0.9787928221859706
Central St & Girard Ave,1048,32,0,2023-02-02,2024-01-31,42.064088583,-87.68627033333334,36.6412213740458,0.0
Central St Metra,1137,41,0,2023-02-01,2024-01-31,42.063572764,-87.69890213,43.27176781002638,0.0
Cherry Ave & Blackhawk St,2240,83,1,2023-02-01,2024-01-31,41.906417131,-87.65602839,44.464285714285715,0.5357142857142857
Chicago Ave & Sheridan Rd,4674,226,10,2023-02-01,2024-01-31,42.049838662,-87.678306699,58.02310654685494,2.5673940949935816
Chicago Ave & Washington St,2888,81,4,2023-02-01,2024-01-31,42.032401204,-87.67946466666666,33.65650969529086,1.6620498614958448
Christiana Ave & Lawrence Ave,1817,30,0,2023-02-01,2024-01-31,41.84688818333333,-87.712074876,19.81287837094111,0.0
Cityfront Plaza Dr & Pioneer Ct,12810,328,8,2023-02-01,2024-01-31,41.881695032,-87.68018376666667,30.72599531615925,0.7494145199063232
Claremont Ave & Hirsch St,3386,92,1,2023-02-01,2024-01-31,41.888929,-87.68654418,32.60484347312463,0.3544004725339634
Clarendon Ave & Gordon Ter,14956,447,11,2023-02-01,2024-01-31,41.883601657275165,-87.73060976666666,35.86520460016047,0.8825889275207275
Clarendon Ave & Junior Ter,11427,227,2,2023-02-01,2024-01-31,41.883601657275165,-87.65228927135468,23.83827776319244,0.2100288789708585
Clarendon Ave & Leland Ave,6486,154,3,2023-02-01,2024-01-31,41.965655,-87.651119828,28.492136910268272,0.5550416281221091
Clark St & 9th St (AMLI),5916,176,3,2023-02-01,2024-01-31,41.869936585,-87.631776929,35.699797160243406,0.6085192697768763
Clark St & Armitage Ave,26262,439,7,2023-02-01,2024-01-31,41.765909666666666,-87.68051826666667,20.059401416495316,0.3198537811286269
Clark St & Berwyn Ave,12280,272,5,2023-02-01,2024-01-31,41.88416981666667,-87.74485883333334,26.579804560260587,0.48859934853420195
Clark St & Bryn Mawr Ave,9244,231,4,2023-02-01,2024-01-31,41.889922733333336,-87.73053848333333,29.98701860666378,0.5192557334487234
Clark St & Chicago Ave,11141,333,9,2023-02-01,2024-01-31,41.853214418519656,-87.71590655,35.867516380935285,0.9693923346198725
Clark St & Columbia Ave,2552,56,4,2023-02-01,2024-01-31,42.0043555,-87.672639251,26.33228840125392,1.8808777429467085
Clark St & Drummond Pl,20813,484,10,2023-02-01,2024-01-31,41.87799155,-87.68956516666667,27.905635900639023,0.5765627252198146
Clark St & Elm St,35366,999,15,2023-02-01,2024-01-31,41.765909666666666,-87.68022536666666,33.896963184979924,0.5089634111858847
Clark St & Elmdale Ave,3621,80,0,2023-02-01,2024-01-31,41.990184188,-87.66986733333333,26.51201325600663,0.0
Clark St & Grace St,13417,243,5,2023-02-01,2024-01-31,41.87371633333333,-87.74485883333334,21.733621524931056,0.44719385853767607
Clark St & Ida B Wells Dr,8222,253,5,2023-02-01,2024-01-31,41.84707783333333,-87.68022536666666,36.92532230600827,0.7297494526879105
Clark St & Jarvis Ave,1351,45,0,2023-02-01,2024-01-31,42.015801668,-87.67512716666667,39.97039230199852,0.0
Clark St & Lake St,16032,579,14,2023-02-01,2024-01-31,41.882201183333336,-87.66196321666666,43.33832335329341,1.0479041916167664
Clark St & Leland Ave,10221,293,14,2023-02-01,2024-01-31,41.890040166666665,-87.74485883333334,34.39976518931611,1.6436747872028177
Clark St & Lincoln Ave,25306,365,10,2023-02-01,2024-01-31,41.867979,-87.68450333333334,17.30814826523354,0.47419584288311073
Clark St & Lunt Ave,4462,162,0,2023-02-01,2024-01-31,41.90066456666667,-87.675451636,43.56790676826535,0.0
Clark St & Montrose Ave,7826,162,4,2023-02-01,2024-01-31,41.878295422,-87.67066776752472,24.840276003066702,0.6133401482238692
Clark St & Newport St,21803,414,10,2023-02-01,2024-01-31,41.760866283333336,-87.68654208333334,22.785855157547125,0.5503829748199789
Clark St & North Ave,12086,198,0,2023-02-01,2024-01-31,41.883601657275165,-87.6756519,19.65910971371835,0.0
Clark St & Randolph St,14071,303,2,2023-02-01,2024-01-24,41.7643715,-87.68010996666666,25.840380925307368,0.17056357046407505
Clark St & Schiller St,18471,476,12,2023-02-01,2024-01-30,41.760866283333336,-87.64862671494483,30.924151372421633,0.779600454766932
Clark St & Schreiber Ave,3448,79,0,2023-02-01,2024-01-31,41.999057293,-87.6715765,27.494199535962878,0.0
Clark St & Touhy Ave,1250,42,1,2023-02-02,2024-01-31,41.98121248333333,-87.69046723333334,40.32,0.96
Clark St & Wellington Ave,16473,370,13,2023-02-01,2024-01-31,41.883601657275165,-87.68777143333334,26.953196139136768,0.947004188672373
Clark St & Winnemac Ave,15698,381,1,2023-02-01,2024-01-31,41.88549170626906,-87.68010996666666,29.124729264874507,0.07644285896292521
Clark St & Wrightwood Ave,23300,425,11,2023-02-01,2024-01-31,41.82328903333333,-87.680651665,21.888412017167383,0.5665236051502146
Clifton Ave & Armitage Ave,10697,275,3,2023-02-01,2024-01-31,41.9079215,-87.66032983333334,30.849770963821634,0.3365429559689633
Clinton St & 18th St,3156,74,1,2023-02-01,2024-01-31,41.8567855,-87.6465425,28.136882129277566,0.38022813688212925
Clinton St & Jackson Blvd,22462,952,14,2023-02-01,2024-01-31,41.87277781666667,-87.66055116666666,50.8592289199537,0.7479298370581426
Clinton St & Lake St,18043,609,25,2023-02-01,2024-01-31,41.765909666666666,-87.72222923333334,40.50324225461398,1.6626946738347281
Clinton St & Madison St,26894,1323,28,2023-02-01,2024-01-31,41.87108416666667,-87.74686418333333,59.03175429463821,1.2493492972410203
Clinton St & Polk St,1175,34,0,2023-02-01,2024-01-31,41.871271,-87.64106369,34.723404255319146,0.0
Clinton St & Roosevelt Rd,7375,158,5,2023-02-01,2024-01-31,41.831712,-87.64615733333333,25.708474576271186,0.8135593220338984
Clinton St & Tilden St,5313,212,8,2023-02-01,2024-01-31,41.875371933,-87.641623855,47.882552230378316,1.8068887634105026
Clinton St & Washington Blvd,32594,1517,37,2023-02-01,2024-01-31,41.863205,-87.74686418333333,55.850770080382894,1.3622139043995827
Clybourn Ave & Division St,6822,197,3,2023-02-01,2024-01-31,41.883601657275165,-87.64862671494483,34.65259454705365,0.5277044854881267
Columbus Dr & Randolph St,20390,575,10,2023-02-01,2024-01-31,41.867241502,-87.64999936666666,33.84011770475723,0.588523786169691
Cornell Ave & Hyde Park Blvd,7268,219,5,2023-02-01,2024-01-31,41.801563859,-87.6127505,36.15850302696753,0.825536598789213
Cottage Grove Ave & 43rd St,1033,30,0,2023-02-01,2024-01-30,41.816175818,-87.606804729,34.84995159728945,0.0
Cottage Grove Ave & 47th St,1317,37,0,2023-02-02,2024-01-31,41.809733987,-87.607012749,33.712984054669704,0.0
Cottage Grove Ave & 51st St,1505,36,0,2023-02-01,2024-01-31,41.802048206,-87.606690407,28.704318936877076,0.0
Cottage Grove Ave & 63rd St,1426,60,1,2023-02-01,2024-01-31,41.779827714,-87.606362224,50.490883590462836,0.8415147265077139
Cottage Grove Ave & Oakwood Blvd,1056,21,0,2023-02-07,2024-01-31,41.82286316666666,-87.63122355,23.863636363636363,0.0
Daley Center Plaza,18746,716,25,2023-02-01,2024-01-31,41.87496816666667,-87.68005096666667,45.83377787261282,1.600341406166649
Damen Ave & Charleston St,6286,210,2,2023-02-01,2024-01-31,41.88549170626906,-87.68630038333333,40.089086859688194,0.38180082723512565
Damen Ave & Chicago Ave,10090,310,6,2023-02-01,2024-01-31,41.885584,-87.71931195,36.86818632309217,0.7135777998017839
Damen Ave & Clybourn Ave,4726,110,2,2023-02-01,2024-01-31,41.931186438,-87.67870295,27.930596699111298,0.5078290308929327
Damen Ave & Cortland St,11292,219,4,2023-02-01,2024-01-31,41.883601657275165,-87.68015061666667,23.273113708820404,0.4250797024442083
Damen Ave & Cullerton St,2382,52,3,2023-02-01,2024-01-31,41.854475856,-87.676015973,26.19647355163728,1.5113350125944585
Damen Ave & Division St,8018,235,5,2023-02-01,2024-01-31,41.838450193,-87.70318883333333,35.17086555250686,0.7483162883512098
Damen Ave & Foster Ave,5082,126,1,2023-02-01,2024-01-31,41.890009165,-87.680651665,29.75206611570248,0.2361275088547816
Damen Ave & Grand Ave,5846,167,4,2023-02-01,2024-01-31,41.838450193,-87.716762,34.27984946972289,0.8210742387957578
Damen Ave & Leland Ave,6887,199,7,2023-02-01,2024-01-31,41.9433502470174,-87.692483902,34.67402352257877,1.2196892696384491
Damen Ave & Madison St,3258,129,2,2023-02-02,2024-01-31,41.87978123333333,-87.68630038333333,47.51381215469613,0.7366482504604052
Damen Ave & Melrose Ave,3975,77,0,2023-02-01,2024-01-31,41.890159483333335,-87.68022536666666,23.245283018867923,0.0
Damen Ave & Pierce Ave,19964,455,8,2023-02-01,2024-01-31,41.8485715,-87.70160533333333,27.349228611500703,0.48086555800440794
Damen Ave & Sunnyside Ave,3898,91,1,2023-02-01,2024-01-31,41.943197,-87.679632425,28.0143663417137,0.3078501795792714
Damen Ave & Thomas St (Augusta Blvd),8474,249,4,2023-02-01,2024-01-31,41.882883668,-87.68599833333333,35.26079773424593,0.5664385178192117
Damen Ave & Wabansia Ave,2843,85,0,2023-05-25,2024-01-31,41.91195883333333,-87.677770257,35.877594090749206,0.0
Damen Ave & Walnut (Lake) St,2785,96,2,2023-02-01,2024-01-31,41.875786781,-87.680134416,41.36445242369838,0.8617594254937163
Damen Ave & Wellington Ave,5393,110,0,2023-02-01,2024-01-31,41.894250274,-87.678701282,24.47617281661413,0.0
Dayton St & North Ave,12243,307,9,2023-02-01,2024-01-31,41.8807814,-87.680651665,30.090664052928204,0.882136731193335
Dearborn Pkwy & Delaware Pl,21078,603,15,2023-02-01,2024-01-31,41.880208731,-87.65647745,34.32963279248506,0.8539709649871904
Dearborn St & Adams St,9369,364,16,2023-02-01,2024-01-31,41.857827666666665,-87.68005096666667,46.62183797630483,2.049311559398015
Dearborn St & Erie St,23889,699,21,2023-02-01,2024-01-31,41.87916993333333,-87.68610881666666,35.11239482607058,1.0548788145171417
Dearborn St & Monroe St,19059,776,16,2023-02-01,2024-01-31,41.843359666666665,-87.701378942,48.85880686289942,1.0073980796474107
Dearborn St & Van Buren St,6081,169,0,2023-02-01,2024-01-31,41.87161063333333,-87.64862671494483,33.34977799703996,0.0
Delano Ct & Roosevelt Rd,7455,110,0,2023-02-01,2024-01-31,41.853214418519656,-87.65228927135468,17.706237424547282,0.0
Desplaines St & Jackson Blvd,13768,420,3,2023-02-01,2024-01-31,41.87725266666666,-87.65228927135468,36.60662405578152,0.26147588611272515
Desplaines St & Kinzie St,23153,772,22,2023-02-01,2024-01-31,41.87256061666667,-87.836727262,40.012093465209695,1.1402410054852503
Desplaines St & Randolph St,10448,209,3,2023-02-01,2024-01-31,41.873934507,-87.68014866666667,24.00459418070444,0.3445635528330781
Dorchester Ave & 49th St,1096,26,0,2023-02-01,2024-01-31,41.780446887,-87.596431732,28.467153284671532,0.0
Drake Ave & Addison St,1881,60,1,2023-02-01,2024-01-31,41.946725368,-87.717858434,38.27751196172249,0.6379585326953748
Drake Ave & Montrose Ave,1291,21,0,2023-02-01,2024-01-31,41.960848689,-87.7167895,19.519752130131682,0.0
Drexel Ave & 60th St,1990,250,6,2023-08-03,2024-01-31,41.785452604,-87.604867697,150.7537688442211,3.6180904522613067
DuSable Lake Shore Dr & Belmont Ave,20799,249,8,2023-02-01,2024-01-31,41.879627228,-87.695759,14.36607529208135,0.46156065195442086
DuSable Lake Shore Dr & Diversey Pkwy,21557,170,3,2023-02-01,2024-01-31,41.8538097,-87.71515141666667,9.463283388226563,0.16699911861576286
DuSable Lake Shore Dr & Monroe St,40163,200,7,2023-02-01,2024-01-31,41.822673,-87.68018376666667,5.975649229390235,0.20914772302865822
DuSable Lake Shore Dr & North Blvd,35874,138,1,2023-02-01,2024-01-31,41.733342,-87.6779642,4.616156547917712,0.03345040976751965
DuSable Lake Shore Dr & Wellington Ave,17909,166,3,2023-02-01,2024-01-31,41.88416981666667,-87.68067533333334,11.122899101010665,0.20101624881344576
Dusable Harbor,21393,100,2,2023-02-01,2024-01-31,41.84560533333333,-87.676694751,5.609311457018651,0.11218622914037302
Eastlake Ter & Howard St,1713,19,0,2023-02-01,2024-01-30,42.018357158,-87.664472818,13.309982486865149,0.0
Eckhart Park,8826,227,6,2023-02-01,2024-01-31,41.853214418519656,-87.661987305,30.86335825968729,0.8157715839564922
Elizabeth St & Fulton St,6648,262,7,2023-02-01,2024-01-31,41.883601657275165,-87.660041213,47.292418772563174,1.263537906137184
Elizabeth St & Randolph St,8560,358,8,2023-02-07,2024-01-31,41.87256061666667,-87.680721164,50.18691588785047,1.1214953271028036
Ellis Ave & 53rd St,5928,234,9,2023-02-01,2024-01-31,41.7934645,-87.60257816666666,47.36842105263158,1.8218623481781377
Ellis Ave & 55th St,19325,1033,23,2023-02-01,2024-01-31,41.784333583333336,-87.68012498333333,64.14489003880983,1.428201811125485
Ellis Ave & 58th St,9065,445,21,2023-02-01,2024-01-31,41.780446887,-87.63763988,58.90788747931605,2.77992277992278
Ellis Ave & 60th St,24326,1219,40,2023-02-01,2024-01-31,41.783069134,-87.602986336,60.13319082463208,1.9731974019567542
Elston Ave & Cortland St,9810,310,6,2023-02-01,2024-01-31,41.883601657275165,-87.70073795,37.920489296636084,0.7339449541284404
Elston Ave & George St,1676,38,0,2023-02-01,2024-01-31,41.93,-87.69112316666667,27.20763723150358,0.0
Elston Ave & Henderson St,1067,21,0,2023-02-02,2024-01-31,41.94,-87.70137216666667,23.617619493908155,0.0
Elston Ave & Wabansia Ave,2857,64,0,2023-02-01,2024-01-31,41.883601657275165,-87.66834043333333,26.88134406720336,0.0
Emerald Ave & 28th St,2952,71,1,2023-02-01,2024-01-31,41.84328866,-87.6456065,28.86178861788618,0.4065040650406504
Emerald Ave & 31st St,6298,131,4,2023-02-01,2024-01-31,41.83774972,-87.646039486,24.960304858685298,0.7621467132422991
Evanston Civic Center,1431,53,0,2023-02-01,2024-01-31,42.05684516666667,-87.686793,44.44444444444444,0.0
Fairbanks Ct & Grand Ave,17198,413,6,2023-02-01,2024-01-31,41.882201183333336,-87.64862671494483,28.817304337713686,0.4186533317827654
Fairbanks St & Superior St,7271,288,10,2023-02-01,2024-01-31,41.88694633333333,-87.63382566666667,47.53128868106175,1.650391968092422
Federal St & Polk St,17460,511,13,2023-02-01,2024-01-31,41.8577225,-87.64862671494483,35.12027491408935,0.8934707903780069
Field Blvd & South Water St,12028,197,5,2023-02-01,2024-01-31,41.84707783333333,-87.64862671494483,19.654140339208514,0.4988360492184902
Field Museum,10590,66,0,2023-02-01,2024-01-31,41.84797476666667,-87.66671835,7.478753541076487,0.0
Financial Pl & Ida B Wells Dr,10553,315,2,2023-02-01,2024-01-31,41.8744155,-87.68051826666667,35.8191983322278,0.22742348147446223
Fort Dearborn Dr & 31st St,4941,18,0,2023-02-03,2024-01-29,41.838373899,-87.68018376666667,4.371584699453552,0.0
Fort Dearborn Dr & 31st St*,3582,32,0,2023-06-05,2024-01-30,41.83523783333333,-87.61825943,10.720268006700168,0.0
Francisco Ave & Chicago Ave,1017,28,0,2023-04-27,2024-01-30,41.895567179,-87.7,33.03834808259587,0.0
Francisco Ave & Foster Ave,2058,58,1,2023-02-04,2024-01-31,41.97553466666667,-87.70154083333334,33.819241982507286,0.5830903790087464
Francisco Ave & Montrose Ave,1381,38,0,2023-02-01,2024-01-31,41.96,-87.70106816666667,33.019551049963795,0.0
Franklin St & Adams St (Temp),10184,416,7,2023-02-01,2024-01-31,41.87658116666667,-87.69673251666667,49.01806755695208,0.8248232521602514
Franklin St & Chicago Ave,13982,336,6,2023-02-01,2024-01-31,41.795286894,-87.6639273,28.83707624088113,0.5149477900157345
Franklin St & Illinois St,13921,374,1,2023-02-01,2024-01-31,41.86700236666667,-87.666705,32.2390632856835,0.08620070397241578
Franklin St & Jackson Blvd,16523,519,9,2023-02-01,2024-01-31,41.8718035,-87.7510985,37.69291290927798,0.6536343279065545
Franklin St & Lake St,16048,684,21,2023-02-01,2024-01-31,41.85788175,-87.680721164,51.14656031904287,1.5702891326021935
Franklin St & Monroe St,15940,619,17,2023-02-01,2024-01-31,41.87441616666667,-87.836727262,46.59974905897114,1.2797992471769135
Glenwood Ave & Morse Ave,4582,128,1,2023-02-01,2024-01-31,42.004653833333336,-87.6657515,33.52247926669577,0.2618943692710607
Glenwood Ave & Touhy Ave,2104,53,3,2023-02-01,2024-01-31,42.01256454,-87.66655423333333,30.228136882129277,1.7110266159695817
Green St & Madison St,19955,516,11,2023-02-01,2024-01-31,41.87544583333333,-87.70212518333334,31.02981708844901,0.6614883487847657
Green St & Randolph St*,5902,185,3,2023-02-01,2024-01-31,41.857762218,-87.68198516666666,37.61436801084378,0.6099627245001694
Green St & Washington Blvd,8394,169,5,2023-02-01,2024-01-31,41.882128119,-87.64951086,24.16011436740529,0.7147962830593281
Greenview Ave & Diversey Pkwy,7009,159,4,2023-02-01,2024-01-31,41.919680666666665,-87.6778285,27.222142959052647,0.6848337851333999
Greenview Ave & Fullerton Ave,11563,239,0,2023-02-01,2024-01-31,41.883601657275165,-87.667265534,24.80325175127562,0.0
Greenview Ave & Jarvis Ave,3464,85,0,2023-02-01,2024-01-31,42.015858,-87.66887033333333,29.445727482678983,0.0
Greenwood Ave & 47th St,2673,105,2,2023-02-01,2024-01-31,41.804552317,-87.735646129,47.138047138047135,0.8978675645342312
Halsted St & 18th St,4253,88,0,2023-02-01,2024-01-31,41.856733799,-87.64925348333334,24.82953209499177,0.0
Halsted St & 21st St,2714,62,1,2023-02-01,2024-01-31,41.853443265,-87.647059679,27.413411938098747,0.4421518054532056
Halsted St & 35th St,3142,78,3,2023-02-01,2024-01-31,41.7998048,-87.647266865,29.78994271164863,1.1457670273711011
Halsted St & Archer Ave,3017,76,0,2023-02-01,2024-01-31,41.84665072,-87.67599081666667,30.228704010606563,0.0
Halsted St & Clybourn Ave,21380,564,7,2023-02-01,2024-01-31,41.87799155,-87.68015061666667,31.65575304022451,0.3928905519176801
Halsted St & Dickens Ave,15572,308,2,2023-02-01,2024-01-31,41.88494526666667,-87.664957,23.734908810685848,0.15412278448497302
Halsted St & Fulton St,15701,559,7,2023-03-16,2024-01-31,41.870526,-87.74686418333333,42.7233934144322,0.5349977708426215
Halsted St & Maxwell St,10720,279,4,2023-02-01,2024-01-31,41.864142179,-87.67029046666667,31.23134328358209,0.44776119402985076
Halsted St & North Branch St,2478,52,0,2023-02-01,2024-01-31,41.883601657275165,-87.6493541,25.181598062953995,0.0
Halsted St & Polk St,17418,532,8,2023-02-01,2024-01-31,41.868257666666665,-87.6801306,36.65173957974509,0.5511539786427834
Halsted St & Roosevelt Rd,9295,285,6,2023-02-01,2024-01-31,41.83479225,-87.67599081666667,36.793975255513715,0.7746100053792362
Halsted St & Roscoe St,20584,362,6,2023-02-01,2024-01-31,41.879627228,-87.68068483333333,21.10376991838321,0.3497862417411582
Halsted St & Willow St,10560,224,4,2023-02-01,2024-01-31,41.883601657275165,-87.649495482,25.454545454545453,0.45454545454545453
Halsted St & Wrightwood Ave,19358,485,8,2023-02-01,2024-01-31,41.7643715,-87.75756263333334,30.06508936873644,0.49591899989668353
Hampden Ct & Diversey Ave,4309,117,0,2023-02-01,2024-01-30,41.93,-87.64285633333333,32.58296588535623,0.0
Harper Ave & 59th St,4618,117,3,2023-02-01,2024-01-31,41.78734033333333,-87.591936,30.40277176266782,0.779558250324816
Hermitage Ave & Polk St,6283,281,1,2023-02-01,2024-01-31,41.870988846,-87.67229251666667,53.66862963552443,0.19099156453923286
Honore St & Division St,12724,319,3,2023-02-01,2024-01-31,41.87978123333333,-87.68610881666666,30.08487896887771,0.282929896259038
Hoyne Ave & Balmoral Ave,2651,96,1,2023-02-01,2024-01-31,41.979223013,-87.68219173,43.45529988683516,0.45265937382119953
Humboldt Blvd & Armitage Ave,5755,128,3,2023-02-01,2024-01-31,41.883601657275165,-87.701975107,26.68983492615117,0.6255430060816681
Indiana Ave & 26th St,3398,78,2,2023-02-02,2024-01-31,41.845237494,-87.66671835,27.545615067686875,0.7062978222483814
Indiana Ave & 31st St,5370,145,6,2023-02-01,2024-01-31,41.804552317,-87.735646129,32.402234636871505,1.3407821229050279
Indiana Ave & Roosevelt Rd,25953,510,10,2023-02-01,2024-01-31,41.85382216666667,-87.64862671494483,23.581088891457636,0.4623742919893654
Jefferson St & Monroe St,9731,252,8,2023-02-01,2024-01-31,41.87277781666667,-87.6801306,31.075942863015108,0.9865378686671462
Kedzie Ave & Foster Ave,1363,15,0,2023-02-02,2024-01-31,41.975323558,-87.709423,13.206162876008804,0.0
Kedzie Ave & George St,1191,26,0,2023-02-01,2024-01-29,41.93,-87.71,26.19647355163728,0.0
Kedzie Ave & Leland Ave,2134,58,1,2023-02-01,2024-01-31,41.966463,-87.708332539,32.61480787253983,0.5623242736644799
Kedzie Ave & Milwaukee Ave,12977,279,4,2023-02-01,2024-01-31,41.869366883333335,-87.76630316666666,25.799491407875472,0.36988518147491717
Kedzie Ave & Palmer Ct,4137,160,4,2023-02-01,2024-01-31,41.87371633333333,-87.71053966666666,46.410442349528644,1.160261058738216
Keystone Ave & Fullerton Ave,1157,39,0,2023-02-01,2024-01-31,41.924340487,-87.728071809,40.449438202247194,0.0
Kimball Ave & Belmont Ave,3304,106,0,2023-02-01,2024-01-31,41.926991533333336,-87.712895513,38.49878934624697,0.0
Kimbark Ave & 53rd St,16105,666,12,2023-02-01,2024-01-31,41.787702441,-87.60158598333334,49.62434026699783,0.8941322570630239
Kingsbury St & Erie St,20128,820,23,2023-02-01,2024-01-31,41.88012183333333,-87.836727262,48.88712241653418,1.3712241653418125
Kingsbury St & Kinzie St,34915,1458,26,2023-02-01,2024-01-31,41.862826166666665,-87.72222923333334,50.11026779321209,0.893598739796649
Knox Ave & Montrose Ave,1574,42,2,2023-02-01,2024-01-31,41.960539579,-87.74554,32.020330368487926,1.5247776365946633
Kosciuszko Park,2617,68,0,2023-02-01,2024-01-31,41.930115938,-87.724234939,31.18074130683989,0.0
LaSalle Dr & Huron St,11581,285,7,2023-02-01,2024-01-31,41.883601657275165,-87.836727262,29.53112857266212,0.7253259649425784
LaSalle St & Adams St,5072,163,8,2023-02-01,2024-01-31,41.85700815,-87.64862671494483,38.564668769716086,1.8927444794952681
LaSalle St & Illinois St,22578,532,12,2023-02-01,2024-01-31,41.760866283333336,-87.680314541,28.275312250863674,0.6377889981397821
LaSalle St & Jackson Blvd,15692,706,21,2023-02-01,2024-01-31,41.87161063333333,-87.65683966666667,53.98929390772368,1.6059138414478715
LaSalle St & Washington St,8469,349,5,2023-02-01,2024-01-31,41.87937535,-87.666841,49.45093871767623,0.7084661707403471
Laflin St & Cullerton St,2801,64,1,2023-02-01,2024-01-31,41.854291333333336,-87.667806,27.41877900749732,0.42841842199214564
Lake Park Ave & 35th St,3724,69,1,2023-02-01,2024-01-31,41.830796242,-87.609025717,22.234156820622985,0.322234156820623
Lake Park Ave & 47th St,2021,16,0,2023-02-01,2024-01-27,41.809057474,-87.59206666666667,9.5002474022761,0.0
Lake Park Ave & 53rd St,6831,212,0,2023-02-01,2024-01-31,41.798202991,-87.58703633333333,37.241985068072026,0.0
Lake Park Ave & 56th St,9004,391,7,2023-02-01,2024-01-31,41.78516333333334,-87.6039605,52.11017325633052,0.9329187027987561
Lakefront Trail & Bryn Mawr Ave,12156,79,4,2023-02-01,2024-01-31,41.88796583333333,-87.669974446,7.7986179664363275,0.39486673247778875
Lakefront Trail & Wilson Ave,8538,60,0,2023-02-01,2024-01-31,41.88164746666666,-87.64969933333333,8.432888264230499,0.0
Lakeview Ave & Fullerton Pkwy,19963,304,9,2023-02-01,2024-01-31,41.87978123333333,-87.68610881666666,18.27380654210289,0.5410008515754146
Larrabee St & Armitage Ave,8735,217,3,2023-02-01,2024-01-31,41.904341216666666,-87.65606545,29.811104751001718,0.41213508872352606
Larrabee St & Division St,11314,253,11,2023-02-01,2024-01-31,41.88178991666667,-87.6639273,26.834010959872725,1.1666961286901185
Larrabee St & Kingsbury St,21790,1008,21,2023-02-01,2024-01-31,41.81354966666667,-87.69310733333333,55.511702615878846,1.156493804497476
Larrabee St & Menomonee St,6035,190,1,2023-02-01,2024-01-31,41.883601657275165,-87.65218332409859,37.77961888980944,0.1988400994200497
Larrabee St & North Ave,7799,166,2,2023-02-01,2024-01-31,41.765909666666666,-87.64862671494483,25.541736120015386,0.3077317604821131
Larrabee St & Oak St,8914,353,8,2023-02-01,2024-01-31,41.795286894,-87.6639273,47.520753870316355,1.076957594794705
Larrabee St & Webster Ave,20628,366,11,2023-02-01,2024-01-31,41.87799155,-87.65374916666667,21.291448516579408,0.6399069226294357
Leavitt St & Addison St,3165,54,1,2023-02-01,2024-01-31,41.883601657275165,-87.683529,20.473933649289098,0.3791469194312796
Leavitt St & Archer Ave,1274,30,0,2023-02-01,2024-01-31,41.828660727,-87.68080008,28.2574568288854,0.0
Leavitt St & Armitage Ave,6256,145,0,2023-02-01,2024-01-31,41.885064363,-87.683215022,27.813299232736572,0.0
Leavitt St & Belmont Ave,4521,86,0,2023-02-01,2024-01-31,41.939106345,-87.70630538333333,22.82680822826808,0.0
Leavitt St & Chicago Ave,5787,167,9,2023-02-01,2024-01-31,41.883601657275165,-87.682617784,34.62934162778642,1.8662519440124417
Leavitt St & Division St,5378,134,3,2023-02-01,2024-01-31,41.883601657275165,-87.684502959,29.899590925994794,0.6693938267013759
Leavitt St & Lawrence Ave,3121,81,0,2023-02-01,2024-01-31,41.88164746666666,-87.684306026,31.143864146107017,0.0
Leavitt St & North Ave,7586,116,2,2023-02-01,2024-01-31,41.883601657275165,-87.687886953,18.34959135249143,0.3163722646981281
Lincoln Ave & Addison St,3984,86,4,2023-02-01,2024-01-31,41.883601657275165,-87.68471645,25.903614457831324,1.2048192771084338
Lincoln Ave & Belle Plaine Ave,5410,135,5,2023-02-01,2024-01-31,41.883601657275165,-87.6978458,29.944547134935306,1.1090573012939002
Lincoln Ave & Belmont Ave (Temp),3545,0,0,2023-02-01,2023-07-10,41.883601657275165,-87.67193675,0.0,0.0
Lincoln Ave & Byron St,3537,83,0,2023-04-12,2024-01-31,41.88547575,-87.68,28.159457167090753,0.0
Lincoln Ave & Diversey Pkwy,13940,285,2,2023-02-01,2024-01-31,41.883601657275165,-87.75756263333334,24.53371592539455,0.17216642754662842
Lincoln Ave & Fullerton Ave,22091,459,17,2023-02-01,2024-01-31,41.87947583333333,-87.680721164,24.933230727445565,0.9234529899053914
Lincoln Ave & Melrose St,5431,235,5,2023-07-10,2024-01-31,41.9115182,-87.67318355,51.924139200883815,1.1047689191677408
Lincoln Ave & Roscoe St*,6712,238,5,2023-02-01,2024-01-31,41.92629348333333,-87.67125833333333,42.55065554231228,0.8939213349225268
Lincoln Ave & Sunnyside Ave,6128,132,1,2023-02-01,2024-01-31,41.87799155,-87.74485883333334,25.848563968668408,0.195822454308094
Lincoln Ave & Waveland Ave,4581,123,1,2023-02-01,2024-01-31,41.883601657275165,-87.68010996666666,32.220039292730846,0.26195153896529144
Lincoln Ave & Winona St,2409,55,0,2023-02-01,2024-01-31,41.94155633333333,-87.70090333333333,27.397260273972602,0.0
Lincoln Park Conservatory,12736,161,0,2023-02-01,2024-01-31,41.89029776666667,-87.68006586666667,15.169597989949748,0.0
Logan Blvd & Elston Ave,6177,180,2,2023-02-01,2024-01-31,41.82328903333333,-87.687553048,34.968431277319084,0.3885381253035454
Loomis St & Archer Ave,1324,37,0,2023-02-07,2024-01-31,41.841440678,-87.6579144,33.53474320241692,0.0
Loomis St & Jackson Blvd,6327,216,7,2023-02-01,2024-01-31,41.877405643,-87.75756263333334,40.96728307254623,1.3276434329065907
Loomis St & Lexington St,21379,615,13,2023-02-01,2024-01-31,41.848570933333335,-87.74485883333334,34.519855933392584,0.7296880116001684
MLK Jr Dr & 29th St,15780,435,11,2023-02-01,2024-01-31,41.83479225,-87.65009975,33.07984790874525,0.8365019011406845
MLK Jr Dr & Pershing Rd,1552,39,0,2023-02-01,2024-01-31,41.824378133,-87.631836653,30.15463917525773,0.0
MTV Hubbard St,1651,62,0,2023-02-01,2024-01-31,41.889609814,-87.680562019,45.06359781950333,0.0
Malcolm X College,2091,57,0,2023-02-02,2024-01-31,41.877320833333336,-87.70212518333334,32.7116212338594,0.0
Manor Ave & Leland Ave,2044,39,0,2023-02-01,2024-01-31,41.96097361666666,-87.701170444,22.89628180039139,0.0
Marine Dr & Ainslie St,7123,93,1,2023-02-01,2024-01-31,41.879627228,-87.6546735,15.667555805138285,0.16846834199073424
May St & Cullerton St,2369,41,0,2023-02-01,2024-01-31,41.854607582,-87.68962943333334,20.76825664837484,0.0
May St & Taylor St,13327,356,11,2023-02-01,2024-01-31,41.868771672,-87.74485883333334,32.05522623246042,0.9904704734749006
McClurg Ct & Erie St,14952,506,11,2023-02-01,2024-01-31,41.84881505,-87.6738285,40.6099518459069,0.8828250401284109
McClurg Ct & Ohio St,21369,455,16,2023-02-01,2024-01-31,41.8718015,-87.65228927135468,25.551031868594695,0.8984978239505826
McCormick Place,7628,86,0,2023-02-01,2024-01-31,41.83479225,-87.68015516666667,13.529103303618248,0.0
Michigan Ave & 14th St,12162,299,1,2023-02-01,2024-01-31,41.84840618333333,-87.6820793,29.501726689689196,0.0986679822397632
Michigan Ave & 18th St,9163,213,3,2023-02-01,2024-01-31,41.856722713,-87.64862671494483,27.894794281348904,0.39288442649787186
Michigan Ave & 8th St,17564,253,4,2023-02-01,2024-01-31,41.79230716666667,-87.79782316666666,17.285356410840354,0.2732862673650649
Michigan Ave & Ida B Wells Dr,7896,129,0,2023-02-01,2024-01-31,41.87371633333333,-87.79073248333333,19.6048632218845,0.0
Michigan Ave & Jackson Blvd,12338,274,2,2023-02-01,2024-01-31,41.866806149,-87.680721164,26.64937591181715,0.1945209920570595
Michigan Ave & Lake St,21178,597,0,2023-02-01,2024-01-31,41.705845233333335,-87.71734213333333,33.827556898668426,0.0
Michigan Ave & Madison St,10103,233,3,2023-02-01,2024-01-31,41.856773833333335,-87.65648466666667,27.67494803523706,0.35632980302880335
Michigan Ave & Oak St,37251,228,4,2023-02-01,2024-01-31,41.860457333333336,-87.68064771666667,7.344769267939116,0.1288556011919143
Michigan Ave & Pearson St,10000,171,6,2023-02-01,2024-01-31,41.883601657275165,-87.6756519,20.52,0.72
Michigan Ave & Washington St,22573,644,11,2023-02-01,2024-01-31,41.836735129,-87.64862671494483,34.23559119301821,0.584769414787578
Mies van der Rohe Way & Chestnut St,13626,274,3,2023-02-01,2024-01-31,41.879114628,-87.65218332409859,24.13033905768384,0.26420079260237783
Mies van der Rohe Way & Chicago Ave,13761,386,9,2023-02-01,2024-01-31,41.877845168,-87.71029495,33.66034445171136,0.7848266841072596
Millennium Park,29958,323,2,2023-02-01,2024-01-31,41.8588615,-87.73060976666666,12.938113358702184,0.08011215701982775
Milwaukee Ave & Cuyler Ave,1021,30,0,2023-02-01,2024-01-31,41.953950405,-87.749849677,35.25954946131244,0.0
Milwaukee Ave & Fullerton Ave,3888,76,0,2023-02-01,2024-01-30,41.92,-87.70094116666667,23.45679012345679,0.0
Milwaukee Ave & Grand Ave,15931,395,2,2023-02-01,2024-01-31,41.77407406666666,-87.680501819,29.75331115435315,0.15064967673090202
Milwaukee Ave & Rockwell St,4206,63,0,2023-02-01,2024-01-31,41.87371633333333,-87.6932441,17.97432239657632,0.0
Milwaukee Ave & Wabansia Ave,12672,326,3,2023-02-01,2024-01-31,41.883601657275165,-87.6821855,30.87121212121212,0.2840909090909091
Monticello Ave & Irving Park Rd,1877,61,0,2023-02-02,2024-01-31,41.953523993,-87.719841599,38.99840170484816,0.0
Montrose Harbor,20147,111,2,2023-02-01,2024-01-31,41.90066456666667,-87.6831905,6.611406164689532,0.1191244353998114
Morgan Ave & 14th Pl,4419,122,1,2023-02-01,2024-01-31,41.861533642,-87.68962943333334,33.129667345553294,0.27155465037338766
Morgan St & 18th St,5174,128,3,2023-02-01,2024-01-31,41.85762012,-87.74485883333334,29.68689601855431,0.6957866254348667
Morgan St & 31st St,4067,123,1,2023-02-01,2024-01-31,41.837455511,-87.651880264,36.292107204327515,0.2950577821490042
Morgan St & Lake St*,8662,366,12,2023-02-01,2024-01-31,41.864447405239375,-87.68239974975586,50.70422535211268,1.662433618102055
Morgan St & Polk St,19392,580,4,2023-02-01,2024-01-31,41.842626214,-87.71515141666667,35.89108910891089,0.24752475247524752
Museum of Science and Industry,5321,50,0,2023-02-02,2024-01-31,41.791428566,-87.62586271666666,11.2760759255779,0.0
N Carpenter St & W Lake St,2642,73,0,2023-02-01,2024-01-31,41.88524433333333,-87.65377383333333,33.15669947009841,0.0
N Damen Ave & W Chicago Ave,1422,63,0,2023-02-01,2024-01-31,41.895154,-87.68,53.164556962025316,0.0
N Green St & W Lake St,6644,184,0,2023-02-01,2024-01-31,41.885222166666665,-87.65,33.232992173389526,0.0
N Paulina St & Lincoln Ave,1997,46,0,2023-02-01,2024-01-31,41.94,-87.6718425,27.641462193289936,0.0
N Sheffield Ave & W Wellington Ave,2162,76,0,2023-02-01,2024-01-31,41.936005116,-87.654103756,42.183163737280296,0.0
N Shore Channel Trail & Argyle St,1128,22,0,2023-02-01,2024-01-29,41.97,-87.7030855,23.404255319148938,0.0
N Southport Ave & W Newport Ave,1706,56,0,2023-02-01,2024-01-31,41.94,-87.664348602,39.390386869871044,0.0
New St & Illinois St,20549,375,0,2023-02-01,2024-01-31,41.877773046,-87.65228927135468,21.89887585770597,0.0
Noble St & Milwaukee Ave,5377,191,1,2023-02-01,2024-01-31,41.883601657275165,-87.66787016666666,42.62599962804538,0.22317277292170354
Noble St & Milwaukee Ave (Temp),2038,0,0,2023-08-16,2023-11-15,41.88381575,-87.6626,0.0,0.0
Normal Ave & Archer Ave,1277,81,4,2023-02-02,2024-01-31,41.84942616666667,-87.640709043,76.11589663273297,3.758809710258418
Oakley Ave & Irving Park Rd,2594,77,1,2023-02-02,2024-01-31,41.953924894,-87.686238885,35.62066306861989,0.4626060138781804
Ogden Ave & Chicago Ave,13133,349,3,2023-02-01,2024-01-31,41.883601657275165,-87.68975805,31.889134241985836,0.2741186324526003
Ogden Ave & Congress Pkwy,4148,123,2,2023-02-01,2024-01-31,41.874650598,-87.75756263333334,35.58341369334619,0.5785920925747348
Ogden Ave & Race Ave,9235,237,2,2023-02-01,2024-01-31,41.880384803,-87.68051826666667,30.7958852192745,0.2598808879263671
Ogden Ave & Roosevelt Rd,2535,84,0,2023-02-01,2024-01-31,41.705845233333335,-87.71734213333333,39.76331360946745,0.0
Orleans St & Chestnut St (NEXT Apts),9174,247,7,2023-02-01,2024-01-31,41.883601657275165,-87.64862671494483,32.30869849574886,0.9156311314584696
Orleans St & Elm St,6294,142,1,2023-02-01,2024-01-31,41.87799155,-87.64862671494483,27.073403241182078,0.19065776930409914
Orleans St & Hubbard St,9052,315,8,2023-02-01,2024-01-31,41.880144954,-87.74686418333333,41.758727353071144,1.0605391073795847
Orleans St & Merchandise Mart Plaza,19987,729,10,2023-02-01,2024-01-31,41.879223466,-87.68005096666667,43.76844949216991,0.6003902536648822
Paulina Ave & North Ave,7282,150,4,2023-02-01,2024-01-31,41.86556503333333,-87.716762,24.718483932985443,0.6591595715462785
Paulina St & 18th St,4463,146,5,2023-02-02,2024-01-31,41.8538097,-87.71515141666667,39.25610575845844,1.3443871835088506
Paulina St & Flournoy St,8375,314,5,2023-02-01,2024-01-31,41.853214418519656,-87.68599833333333,44.9910447761194,0.7164179104477612
Paulina St & Howard St,2639,74,2,2023-02-01,2024-01-31,42.018464804,-87.673820972,33.64910951117848,0.9094353921940129
Paulina St & Montrose Ave,5523,216,11,2023-02-01,2024-01-31,41.89023363333333,-87.68015061666667,46.931015752308525,2.390005431830527
Peoria St & Jackson Blvd,17446,623,11,2023-02-01,2024-01-31,41.842626214,-87.704150558,42.85222973747564,0.7566204287515763
Pine Grove Ave & Irving Park Rd,16546,338,10,2023-02-01,2024-01-31,41.877773046,-87.66593216666666,24.513477577662275,0.7252508159071679
Pine Grove Ave & Waveland Ave,21160,485,8,2023-02-01,2024-01-31,41.883601657275165,-87.67066776752472,27.504725897920604,0.45368620037807184
Prairie Ave & Garfield Blvd,1297,43,1,2023-02-02,2024-01-31,41.794573188,-87.6280285,39.784117193523514,0.9252120277563608
Racine Ave & 13th St,1372,44,0,2023-02-01,2024-01-31,41.864669919,-87.657460332,38.48396501457726,0.0
Racine Ave & 15th St,3129,78,0,2023-02-01,2024-01-31,41.860921025,-87.68962943333334,29.913710450623203,0.0
Racine Ave & 18th St,6183,185,5,2023-02-01,2024-01-31,41.857611656,-87.68051826666667,35.904900533721495,0.970402717127608
Racine Ave & 35th St,1960,44,1,2023-02-01,2024-01-31,41.82897083333334,-87.656564832,26.93877551020408,0.6122448979591837
Racine Ave & Belmont Ave,13469,240,1,2023-02-01,2024-01-31,41.87371633333333,-87.68022536666666,21.382433736728785,0.0890934739030366
Racine Ave & Congress Pkwy,9152,293,6,2023-02-01,2024-01-31,41.873949289,-87.68679498333333,38.41783216783217,0.7867132867132867
Racine Ave & Fullerton Ave,16108,359,6,2023-02-01,2024-01-31,41.883601657275165,-87.66383028,26.744474795132852,0.4469828656568165
Racine Ave & Randolph St,5019,124,3,2023-02-01,2024-01-31,41.882810354,-87.68021606666667,29.647340107591155,0.7172743574417214
Racine Ave & Washington Blvd,5312,140,4,2023-02-01,2024-01-31,41.882334232,-87.68074183333333,31.626506024096386,0.9036144578313253
Racine Ave & Wrightwood Ave,8096,203,3,2023-02-01,2024-01-31,41.90694833333333,-87.65933013,30.08893280632411,0.44466403162055335
Ravenswood Ave & Berteau Ave,4176,133,0,2023-02-01,2024-01-31,41.957329512,-87.67393916666667,38.2183908045977,0.0
Ravenswood Ave & Irving Park Rd,5754,168,3,2023-02-01,2024-01-31,41.916861833333336,-87.74485883333334,35.03649635036496,0.6256517205422315
Ravenswood Ave & Lawrence Ave,17706,663,0,2023-02-01,2024-01-31,41.889862883333336,-87.6800928,44.93392070484582,0.0
Rhodes Ave & 32nd St,8976,296,10,2023-02-01,2024-01-31,41.764829866666666,-87.735646129,39.57219251336898,1.3368983957219251
Richmond St & Diversey Ave,3483,50,3,2023-02-01,2024-01-31,41.93176043,-87.701492906,17.22652885443583,1.0335917312661498
Ritchie Ct & Banks St,11195,197,0,2023-02-01,2024-01-31,41.883601657275165,-87.667791843,21.116569897275568,0.0
Rockwell St & Eastwood Ave,3446,82,1,2023-02-01,2024-01-31,41.9433502470174,-87.73053848333333,28.554846198491003,0.3482298316889147
Rockwell St & Fletcher St,2161,38,0,2023-02-01,2024-01-31,41.93833433333333,-87.693145037,21.10134197130958,0.0
Rush St & Cedar St,15832,365,6,2023-02-01,2024-01-31,41.879114628,-87.64862671494483,27.665487620010108,0.45477513895907024
Rush St & Hubbard St,10236,348,7,2023-02-01,2024-01-31,41.88135176666667,-87.67352198333333,40.79718640093787,0.82063305978898
Rush St & Superior St,14836,541,16,2023-02-01,2024-01-31,41.85649776666666,-87.71590655,43.758425451604204,1.2941493664060393
Sangamon St & Lake St,12256,324,5,2023-02-01,2024-01-31,41.883601657275165,-87.680501819,31.723237597911226,0.489556135770235
Sangamon St & Washington Blvd,7942,178,3,2023-02-01,2024-01-31,41.882367492,-87.668944,26.894988667841854,0.45328632586250317
Sawyer Ave & Irving Park Rd,1389,37,0,2023-02-03,2024-01-31,41.953506947,-87.709532142,31.965442764578835,0.0
Sedgwick St & Huron St,15038,540,14,2023-02-01,2024-01-31,41.854018927,-87.717513323,43.09083654741322,1.117169836414417
Sedgwick St & North Ave,14783,328,9,2023-02-01,2024-01-31,41.8674606,-87.680501819,26.62517756882906,0.7305688967056755
Sedgwick St & Schiller St,5207,151,4,2023-02-01,2024-01-31,41.90657258,-87.640671134,34.79930862300749,0.9218359900134434
Sedgwick St & Webster Ave,14961,315,1,2023-02-01,2024-01-31,41.890109897,-87.680501819,25.26569079606978,0.08020854220974534
Seeley Ave & Roscoe St,6528,127,3,2023-02-01,2024-01-31,41.916861833333336,-87.74485883333334,23.345588235294116,0.5514705882352942
Shedd Aquarium,22556,246,7,2023-02-01,2024-01-31,41.858131666666665,-87.65010321666666,13.087426848732045,0.3724064550452208
Sheffield Ave & Fullerton Ave,24942,809,10,2023-02-01,2024-01-31,41.883601657275165,-87.69046723333334,38.9222997353861,0.4811161895597787
Sheffield Ave & Kingsbury St,13960,368,7,2023-02-01,2024-01-31,41.81359016666666,-87.69312383333333,31.63323782234957,0.6017191977077364
Sheffield Ave & Waveland Ave,20132,395,11,2023-02-01,2024-01-31,41.760866283333336,-87.655380726,23.544605603020067,0.6556725610967614
Sheffield Ave & Webster Ave,18283,359,5,2023-02-01,2024-01-31,41.875538166666665,-87.674988,23.562872613903625,0.3281737132855658
Sheffield Ave & Wellington Ave,16835,322,4,2023-02-01,2024-01-31,41.883174419,-87.69066023333333,22.95218295218295,0.28512028512028514
Sheffield Ave & Willow St,9841,215,8,2023-02-01,2024-01-31,41.883601657275165,-87.69635233333334,26.216847881312876,0.9755106188395488
Sheffield Ave & Wrightwood Ave,17417,343,4,2023-02-01,2024-01-31,41.879996657,-87.836727262,23.63208359648619,0.2755928116208302
Sheridan Rd & Argyle St,7589,151,1,2023-02-02,2024-01-31,41.916861833333336,-87.74485883333334,23.876663592041112,0.15812359994729214
Sheridan Rd & Buena Ave,11159,236,4,2023-02-01,2024-01-31,41.890072333333336,-87.68067216666667,25.378618155748722,0.43014607043641906
Sheridan Rd & Columbia Ave,3233,85,2,2023-02-01,2024-01-31,42.004333138,-87.66186383333333,31.549644293226105,0.7423445716053202
Sheridan Rd & Greenleaf Ave,2002,46,1,2023-02-01,2024-01-31,42.010166287,-87.662523508,27.57242757242757,0.5994005994005994
Sheridan Rd & Irving Park Rd,19004,501,8,2023-02-01,2024-01-31,41.8538097,-87.71515141666667,31.635445169438015,0.5051568090928226
Sheridan Rd & Lawrence Ave,6597,174,1,2023-02-01,2024-01-31,41.942109216666665,-87.67820968333334,31.65075034106412,0.18190086402910413
Sheridan Rd & Loyola Ave,4779,114,3,2023-02-01,2024-01-31,42.000660419,-87.661519885,28.625235404896422,0.7532956685499058
Sheridan Rd & Montrose Ave,15193,360,3,2023-02-01,2024-01-31,41.877773046,-87.68063283333333,28.434147304679787,0.23695122753899822
Sheridan Rd & Noyes St (NU),6830,350,12,2023-02-01,2024-01-31,42.057661295,-87.6778301,61.49341142020498,2.108345534407028
Shields Ave & 28th Pl,3043,78,1,2023-02-01,2024-01-31,41.842327237,-87.63812898333333,30.75911929017417,0.39434768320736113
Shields Ave & 31st St,5442,156,2,2023-02-01,2024-01-31,41.83820641,-87.704150558,34.39911797133407,0.4410143329658214
Shore Dr & 55th St,10776,265,10,2023-02-01,2024-01-31,41.784333583333336,-87.7510985,29.510022271714924,1.1135857461024499
Smith Park,2069,53,0,2023-02-02,2024-01-31,41.86700236666667,-87.689525843,30.739487675205414,0.0
South Shore Dr & 67th St,1283,32,2,2023-02-01,2024-01-29,41.773429513,-87.567516923,29.929851909586905,1.8706157443491815
South Shore Dr & 71st St,1187,18,0,2023-02-03,2024-01-31,41.76612716666666,-87.56603966666667,18.197135636057286,0.0
Southport Ave & Belmont Ave,12222,293,2,2023-02-01,2024-01-31,41.9180845,-87.6767115,28.767795778105057,0.19636720667648502
Southport Ave & Clark St,4004,126,3,2023-02-01,2024-01-31,41.93418716666667,-87.664411426,37.76223776223776,0.8991008991008991
Southport Ave & Clybourn Ave,8679,255,6,2023-02-01,2024-01-31,41.8723992,-87.69046723333334,35.257518147251986,0.8295886622882821
Southport Ave & Irving Park Rd,8581,233,4,2023-02-01,2024-01-31,41.88164746666666,-87.74485883333334,32.58361496329099,0.5593753641766693
Southport Ave & Roscoe St,19288,343,9,2023-02-01,2024-01-31,41.89963383333333,-87.67105639,21.33969307341352,0.5599336374948154
Southport Ave & Waveland Ave,19767,407,7,2023-02-01,2024-01-31,41.8538097,-87.74821933333334,24.707846410684475,0.42495067536803766
Southport Ave & Wellington Ave,14134,308,3,2023-02-01,2024-01-31,41.883601657275165,-87.66777836666667,26.149709919343426,0.25470496674685156
Southport Ave & Wrightwood Ave,11774,269,4,2023-02-01,2024-01-31,41.87799155,-87.664601564,27.416341090538474,0.4076779344317989
Spaulding Ave & Armitage Ave,5696,149,3,2023-02-01,2024-01-31,41.89050016666667,-87.75756263333334,31.390449438202246,0.6320224719101124
Spaulding Ave & Division St,1781,36,0,2023-02-01,2024-01-31,41.8723992,-87.709583521,24.256035934868052,0.0
St. Clair St & Erie St,21283,603,18,2023-02-01,2024-01-31,41.884327412,-87.6413306,33.99896631114035,1.0148945167504582
St. Louis Ave & Balmoral Ave,1177,19,0,2023-02-02,2024-01-31,41.84797476666667,-87.716310024,19.37128292268479,0.0
St. Louis Ave & Fullerton Ave,3380,77,0,2023-02-01,2024-01-31,41.924271703,-87.76630316666666,27.337278106508876,0.0
State St & 19th St,2983,57,1,2023-02-02,2024-01-31,41.855887651,-87.628319621,22.929936305732483,0.4022795843110962
State St & 29th St,1245,29,0,2023-02-01,2024-01-31,41.841631413,-87.627061,27.951807228915662,0.0
State St & 33rd St,17975,623,8,2023-02-01,2024-01-31,41.764829866666666,-87.704150558,41.59109874826147,0.5340751043115438
State St & 35th St,6889,182,1,2023-02-01,2024-01-31,41.8300457,-87.704150558,31.70271447234722,0.17419073885905065
State St & Chicago Ave,25307,871,29,2023-02-01,2024-01-31,41.87430088333333,-87.666705,41.30082585845813,1.3751136049314419
State St & Harrison St,8559,184,4,2023-02-01,2024-01-31,41.8735345,-87.68015061666667,25.797406239046616,0.5608131791097091
State St & Kinzie St,15248,509,4,2023-02-01,2024-01-31,41.86700236666667,-87.67599081666667,40.057712486883524,0.3147953830010493
State St & Pearson St,9276,238,1,2023-02-01,2024-01-31,41.883601657275165,-87.68015516666667,30.789133247089264,0.129366106080207
State St & Randolph St,16681,380,12,2023-02-01,2024-01-31,41.882820964,-87.64862671494483,27.33649061806846,0.8632575984653198
State St & Van Buren St,9647,237,4,2023-02-01,2024-01-31,41.876473188,-87.68077563333334,29.48066756504613,0.49756400953664354
Stave St & Armitage Ave,5106,129,1,2023-02-01,2024-01-31,41.869366883333335,-87.692293525,30.317273795534664,0.23501762632197415
Stetson Ave & South Water St,10943,329,2,2023-02-01,2024-01-31,41.869631,-87.668377161,36.077857991410035,0.21931828566206707
Stockton Dr & Wrightwood Ave,16060,277,6,2023-02-01,2024-01-31,41.889894,-87.65516833333334,20.697384806973847,0.44831880448318806
Streeter Dr & Grand Ave,63012,285,0,2023-02-01,2024-01-31,41.84851066666667,-87.73060976666666,5.427537611883451,0.0
Talman Ave & Addison St,3556,110,0,2023-02-01,2024-01-31,41.946367621,-87.69485569,37.120359955005625,0.0
Theater on the Lake,30020,147,1,2023-02-01,2024-01-31,41.78806956666666,-87.677449942,5.876082611592272,0.039973351099267154
Throop St & Taylor St,7282,154,2,2023-02-01,2024-01-31,41.868688703,-87.67369333333333,25.377643504531722,0.32957978577313923
Troy St & Elston Ave,2519,72,2,2023-02-01,2024-01-31,41.939463,-87.7068815,34.29932512901945,0.9527590313616514
Troy St & Grace St,1219,41,0,2023-02-01,2024-01-30,41.95,-87.71,40.360951599671864,0.0
Troy St & North Ave,2897,63,0,2023-02-01,2024-01-31,41.909360528,-87.705670595,26.095961339316535,0.0
University Ave & 57th St,25908,1361,44,2023-02-01,2024-01-31,41.78859966666667,-87.735646129,63.03844372394627,2.0379805465493286
University Ave & 59th St,2698,293,1,2023-08-29,2024-01-31,41.787532568,-87.59945383333333,130.31875463306153,0.4447739065974796
University Library (NU),2847,89,2,2023-02-01,2024-01-31,42.052443624,-87.673808098,37.5131717597471,0.8429926238145417
W Armitage Ave & N Sheffield Ave,3220,76,0,2023-02-01,2024-01-31,41.91753602,-87.653869152,28.322981366459626,0.0
W Oakdale Ave & N Broadway,3419,94,0,2023-02-01,2024-01-31,41.935364604,-87.64435266666666,32.99210295408014,0.0
W Washington Blvd & N Peoria St,1501,100,0,2023-05-25,2024-01-30,41.88283533333333,-87.65030833333333,79.94670219853431,0.0
Wabash Ave & 16th St,9231,261,6,2023-02-01,2024-01-31,41.853214418519656,-87.64816068333333,33.92915177120572,0.7799805004874878
Wabash Ave & 9th St,13716,306,0,2023-02-01,2024-01-31,41.853214418519656,-87.64862671494483,26.771653543307085,0.0
Wabash Ave & Adams St,10058,297,6,2023-02-01,2024-01-31,41.8461902,-87.65228927135468,35.43448001590774,0.7158480811294492
Wabash Ave & Cermak Rd,3537,71,3,2023-02-01,2024-01-31,41.851881981,-87.627052307,24.088210347752334,1.0178117048346056
Wabash Ave & Grand Ave,25008,662,25,2023-02-01,2024-01-31,41.867054224,-87.65662183333333,31.765834932821498,1.199616122840691
Wabash Ave & Roosevelt Rd,20421,488,11,2023-02-01,2024-01-31,41.857843757,-87.64862671494483,28.676362567944764,0.6463934185397385
Wabash Ave & Wacker Pl,12633,288,3,2023-02-01,2024-01-31,41.879781723,-87.66676566666666,27.356922346236047,0.2849679411066255
Wacker Dr & Washington St,10336,420,5,2023-02-01,2024-01-31,41.881284952,-87.68003986666666,48.76160990712074,0.5804953560371517
Wallace St & 35th St,2196,51,1,2023-02-02,2024-01-31,41.830507833333336,-87.641464829,27.868852459016395,0.546448087431694
Walsh Park,7481,187,7,2023-02-01,2024-01-31,41.883601657275165,-87.695415378,29.995989840930356,1.1228445395000668
Warren Park West,1229,47,3,2023-02-01,2024-01-31,41.98121248333333,-87.69046723333334,45.89096826688365,2.9292107404393817
Washtenaw Ave & Lawrence Ave,2654,83,0,2023-02-01,2024-01-31,41.968141317,-87.696387291,37.528259231348905,0.0
Wells St & 19th St,2006,15,0,2023-02-01,2024-01-31,41.856659,-87.63405916666666,8.97308075772682,0.0
Wells St & Concord Ln,33239,703,4,2023-02-01,2024-01-31,41.854018927,-87.76630316666666,25.379824904479676,0.14440867655464965
Wells St & Elm St,30235,948,25,2023-02-01,2024-01-31,41.765909666666666,-87.65324533333333,37.62526872829502,0.992227550851662
Wells St & Evergreen Ave,18921,398,3,2023-02-01,2024-01-31,41.883601657275165,-87.69864033333333,25.24179483114,0.19026478515934675
Wells St & Hubbard St,23483,801,29,2023-02-01,2024-01-31,41.8769195,-87.697837,40.93173785291487,1.4819230933015373
Wells St & Huron St,24686,671,25,2023-02-01,2024-01-31,41.760866283333336,-87.68943463333333,32.61767803613384,1.215263712225553
Wells St & Institute Pl,7017,204,3,2023-02-01,2024-01-31,41.883601657275165,-87.65228927135468,34.88670371953826,0.5130397605814451
Wells St & Polk St,10371,343,10,2023-02-01,2024-01-31,41.867158651,-87.68003986666666,39.68759039629737,1.1570726063060457
Wells St & Walton St,11896,349,10,2023-02-01,2024-01-31,41.876955333333335,-87.64862671494483,35.205110961667785,1.0087424344317417
Wentworth Ave & 24th St,1643,35,1,2023-04-19,2024-01-31,41.849758863,-87.632544279,25.562994522215458,0.7303712720632989
Wentworth Ave & 33rd St,3832,112,2,2023-02-01,2024-01-31,41.834326029,-87.632998943,35.07306889352818,0.6263048016701461
Wentworth Ave & 35th St,2508,58,0,2023-02-01,2024-01-31,41.830299377,-87.63282907,27.751196172248804,0.0
Wentworth Ave & Cermak Rd,4940,70,2,2023-02-01,2024-01-31,41.8461902,-87.667806,17.004048582995953,0.48582995951417
Wentworth Ave & Cermak Rd*,3885,64,3,2023-04-12,2024-01-31,41.852663755,-87.63381716666666,19.768339768339768,0.9266409266409267
Western Ave & 21st St,1724,54,0,2023-02-01,2024-01-31,41.7998048,-87.68592833333334,37.58700696055684,0.0
Western Ave & Berteau Ave,1098,50,0,2023-02-02,2024-01-31,41.957522833333336,-87.69,54.6448087431694,0.0
Western Ave & Congress Pkwy,3733,100,1,2023-02-01,2024-01-31,41.873980165,-87.686995149,32.14572729708009,0.32145727297080096
Western Ave & Division St,6465,189,2,2023-02-01,2024-01-31,41.86700236666667,-87.70212518333334,35.08120649651972,0.37122969837587005
Western Ave & Fillmore St,5473,126,2,2023-02-01,2024-01-31,41.867931366,-87.68679498333333,27.626530239356843,0.43851635300566416
Western Ave & Grace St,1410,31,0,2023-02-01,2024-01-31,41.95,-87.69,26.382978723404257,0.0
Western Ave & Granville Ave,1239,21,0,2023-02-02,2024-01-30,41.99409566666667,-87.68964383333334,20.338983050847457,0.0
Western Ave & Gunnison St,1044,36,0,2023-02-01,2024-01-31,41.969371319,-87.69,41.37931034482759,0.0
Western Ave & Howard St,1210,38,0,2023-02-01,2024-01-31,42.018834352,-87.690270782,37.68595041322314,0.0
Western Ave & Leland Ave,8162,213,5,2023-02-01,2024-01-31,41.78806956666666,-87.689684391,31.31585395736339,0.7351139426611125
Western Ave & Lunt Ave,1763,49,1,2023-02-01,2024-01-31,41.90066456666667,-87.690605283,33.352240499149175,0.6806579693703914
Western Ave & Monroe St,2522,83,0,2023-02-01,2024-01-31,41.87743433333333,-87.68633283333334,39.49246629659001,0.0
Western Ave & Roscoe St,3339,75,0,2023-02-01,2024-01-31,41.916861833333336,-87.74485883333334,26.954177897574123,0.0
Western Ave & Walton St,6863,164,0,2023-02-01,2024-01-31,41.885356183333336,-87.697243,28.675506338336003,0.0
Western Ave & Winnebago Ave,10277,294,3,2023-02-01,2024-01-31,41.82328903333333,-87.687470198,34.32908436314099,0.35029677921572444
Wilton Ave & Belmont Ave,27236,631,9,2023-02-01,2024-01-31,41.8538097,-87.71515141666667,27.801439271552358,0.3965339991188133
Wilton Ave & Diversey Pkwy,17734,360,7,2023-02-01,2024-01-31,41.82328903333333,-87.7024089,24.359986466674187,0.47366640351866474
Wilton Ave & Diversey Pkwy*,2428,106,3,2023-02-01,2024-01-31,41.91820216666667,-87.6571035,52.38879736408567,1.4827018121911038
Winchester (Ravenswood) Ave & Balmoral Ave,1855,85,2,2023-02-02,2024-01-31,41.97966616666667,-87.6777225,54.98652291105121,1.2938005390835579
Winchester Ave & Elston Ave,3645,94,3,2023-02-01,2024-01-31,41.90780185,-87.70202803333333,30.94650205761317,0.9876543209876543
Winthrop Ave & Lawrence Ave,6894,190,2,2023-02-01,2024-01-31,41.879627228,-87.660293,33.07223672758921,0.34812880765883375
Wolcott (Ravenswood) Ave & Montrose Ave,6320,172,3,2023-02-01,2024-01-31,41.9251255,-87.676488638,32.65822784810127,0.569620253164557
Wolcott Ave & Polk St,9332,332,6,2023-02-01,2024-01-31,41.86910216666666,-87.68679498333333,42.69181311615945,0.7715387912558938
Wood St & 35th St,1009,30,1,2023-02-01,2024-01-31,41.829986572,-87.670702219,35.678889990089196,1.1892963330029733
Wood St & Augusta Blvd,6856,174,1,2023-02-02,2024-01-31,41.880189061,-87.68074183333333,30.455075845974328,0.1750291715285881
Wood St & Chicago Ave,7738,264,3,2023-02-01,2024-01-31,41.86900876666667,-87.691818,40.940811579219435,0.4652364952184027
Wood St & Hubbard St,4445,131,6,2023-02-01,2024-01-31,41.881600857,-87.67686916666666,35.36557930258718,1.6197975253093364
Wood St & Milwaukee Ave,13443,303,5,2023-02-01,2024-01-31,41.869366883333335,-87.673418164,27.047534032582014,0.4463289444320464
Wood St & Taylor St (Temp),6569,202,5,2023-02-01,2024-01-31,41.848570933333335,-87.68527793333334,36.90059369767088,0.9133810321205663
Wood St & Webster Ave,3464,84,1,2023-02-01,2024-01-31,41.920822144,-87.67299616666666,29.099307159353348,0.3464203233256351
Woodlawn Ave & 55th St,10734,446,9,2023-02-01,2024-01-31,41.780446887,-87.64862671494483,49.86025712688653,1.0061486864169928
Woodlawn Ave & 58th St,2963,362,17,2023-09-15,2024-01-31,41.7889117,-87.59704466666666,146.60816739790752,6.884913938575767
Woodlawn Ave & Lake Park Ave,1597,57,1,2023-02-02,2024-01-31,41.813870668,-87.59711583333333,42.830306825297434,0.7514088916718847
